{"query":"EoS Fitness","category":"gym","placeId":"0x8640e7856a4c8e01:0xa941ef39002cdec6","name":"EōS Fitness, Highway 6, Sugar Land, TX","formattedAddress":"EōS Fitness, Highway 6, Sugar Land, TX","latitude":29.590083,"longitude":-95.6031022,"types":["gym"],"sourceQueryType":"google_export"}
{"query":"EoS Fitness","category":"gym","placeId":"0x8640bf5964463a6f:0x10c128e9e4925ec0","name":"EōS Fitness, Allen Parkway, Houston, TX","formattedAddress":"EōS Fitness, Allen Parkway, Houston, TX","latitude":29.7606694,"longitude":-95.3827084,"types":["gym"],"sourceQueryType":"google_export"}
{"query":"EoS Fitness","category":"gym","placeId":"0x864129bdfdcc467b:0x9d848b36de9b7c4e","name":"EōS Fitness, Farm to Market Road 529, Cypress, TX","formattedAddress":"EōS Fitness, Farm to Market Road 529, Cypress, TX","latitude":29.8769712,"longitude":-95.7627646,"types":["gym"],"sourceQueryType":"google_export"}
{"query":"Life Time","category":"gym","placeId":"0x8640c11ad2c93121:0x465d18d07881ea03","name":"Life Time, Healthy Way, Houston, TX","formattedAddress":"Life Time, Healthy Way, Houston, TX","latitude":29.7314817,"longitude":-95.4357108,"types":["gym"],"sourceQueryType":"google_export"}
{"query":"Life Time","category":"gym","placeId":"0x8640c4b24bf379bd:0xf85d910650ad1bbd","name":"Life Time, Town and Country Boulevard, Houston, TX","formattedAddress":"Life Time, Town and Country Boulevard, Houston, TX","latitude":29.7808751,"longitude":-95.5601764,"types":["gym"],"sourceQueryType":"google_export"}
{"query":"Life Time","category":"gym","placeId":"0x864120d8439ea70f:0x8cdac7aed38e078f","name":"Life Time, Cinco Ranch Boulevard, Katy, TX","formattedAddress":"Life Time, Cinco Ranch Boulevard, Katy, TX","latitude":29.7421448,"longitude":-95.7705562,"types":["gym"],"sourceQueryType":"google_export"}
{"query":"Life Time","category":"gym","placeId":"0x864737c04bfc2679:0xe62112662dc4f0d0","name":"Life Time, Six Pines Drive, Shenandoah, TX","formattedAddress":"Life Time, Six Pines Drive, Shenandoah, TX","latitude":30.173734,"longitude":-95.459782,"types":["gym"],"sourceQueryType":"google_export"}
{"query":"YMCA","category":"gym","placeId":"0x864730d92e13ac15:0x7cf783570ec993df","name":"YMCA at Shadowbend, Shadowbend Place, The Woodlands, TX","formattedAddress":"YMCA at Shadowbend, Shadowbend Place, The Woodlands, TX","latitude":30.18653,"longitude":-95.492183,"types":["gym"],"sourceQueryType":"google_export"}
{"query":"YMCA","category":"gym","placeId":"0x8640d3fdd7a79737:0xcdfea4268252627","name":"YMCA center, Texas 249, Houston, TX","formattedAddress":"YMCA center, Texas 249, Houston, TX","latitude":29.982892399999997,"longitude":-95.569802,"types":["gym"],"sourceQueryType":"google_export"}
{"query":"24 Hour Fitness","category":"gym","placeId":"0x8640c06bc23a81ad:0x79db4edaa9ff1a5e","name":"24 Hour Fitness, Dunstan Road, Houston, TX","formattedAddress":"24 Hour Fitness, Dunstan Road, Houston, TX","latitude":29.7192166,"longitude":-95.4170443,"types":["gym"],"sourceQueryType":"google_export"}
{"query":"24 Hour Fitness","category":"gym","placeId":"0x864736c6ae8c4ac9:0x8123697e61ce684e","name":"24 Hour Fitness, Lake Woodlands Drive, The Woodlands, TX","formattedAddress":"24 Hour Fitness, Lake Woodlands Drive, The Woodlands, TX","latitude":30.1663605,"longitude":-95.4622932,"types":["gym"],"sourceQueryType":"google_export"}
{"query":"24 Hour Fitness","category":"gym","placeId":"0x8640c7f080b85083:0x684841d9271a77db","name":"24 Hour Fitness, West 18th Street, Houston, TX","formattedAddress":"24 Hour Fitness, West 18th Street, Houston, TX","latitude":29.8023542,"longitude":-95.4282792,"types":["gym"],"sourceQueryType":"google_export"}
{"query":"24 Hour Fitness","category":"gym","placeId":"0x86473547b3cddc8f:0x7ac812694d2fd30d","name":"24 Hour Fitness, Lake Plaza Drive, Spring, TX","formattedAddress":"24 Hour Fitness, Lake Plaza Drive, Spring, TX","latitude":30.0961792,"longitude":-95.4398102,"types":["gym"],"sourceQueryType":"google_export"}
{"query":"LA Fitness","category":"gym","placeId":"0x8640c75393defc25:0xab12c4e7af367107","name":"LA Fitness, Yale Street, Houston, TX","formattedAddress":"LA Fitness, Yale Street, Houston, TX","latitude":29.775541299999997,"longitude":-95.4003372,"types":["gym"],"sourceQueryType":"google_export"}
{"query":"LA Fitness","category":"gym","placeId":"0x8640c104812ffc23:0x94341f147d0152ad","name":"LA Fitness, Richmond Avenue, Houston, TX","formattedAddress":"LA Fitness, Richmond Avenue, Houston, TX","latitude":29.7341518,"longitude":-95.4393957,"types":["gym"],"sourceQueryType":"google_export"}
{"query":"LA Fitness","category":"gym","placeId":"0x8640e1fb03f13ae5:0xca8484beab49dbcf","name":"LA Fitness, West Bellfort Street, Richmond, TX","formattedAddress":"LA Fitness, West Bellfort Street, Richmond, TX","latitude":29.6630229,"longitude":-95.7229232,"types":["gym"],"sourceQueryType":"google_export"}
{"query":"LA Fitness","category":"gym","placeId":"0x8640c799e5bfaefb:0xa543c2413ceccce5","name":"LA Fitness, North Shepherd Drive, Houston, TX","formattedAddress":"LA Fitness, North Shepherd Drive, Houston, TX","latitude":29.828598999999997,"longitude":-95.4097451,"types":["gym"],"sourceQueryType":"google_export"}
{"query":"Planet Fitness","category":"gym","placeId":"0x864737a5208e0fd9:0x54ce993150a0c678","name":"Planet Fitness, Interstate 45, Oak Ridge North, TX","formattedAddress":"Planet Fitness, Interstate 45, Oak Ridge North, TX","latitude":30.15321,"longitude":-95.44707,"types":["gym"],"sourceQueryType":"google_export"}
{"query":"Planet Fitness","category":"gym","placeId":"0x8640c19d6e3219f1:0x80b62850b35efc47","name":"Planet Fitness, South Main Street, Houston, TX","formattedAddress":"Planet Fitness, South Main Street, Houston, TX","latitude":29.680034,"longitude":-95.424045,"types":["gym"],"sourceQueryType":"google_export"}
{"query":"Planet Fitness","category":"gym","placeId":"0x8640c41407c706fd:0x6113208da2661fb3","name":"Planet Fitness, Katy Freeway, Katy, TX","formattedAddress":"Planet Fitness, Katy Freeway, Katy, TX","latitude":29.78334,"longitude":-95.79589,"types":["gym"],"sourceQueryType":"google_export"}
{"query":"Planet Fitness","category":"gym","placeId":"0x864093a2356d8955:0x7945a636566e0849","name":"Planet Fitness, Shadow Creek Parkway, Pearland, TX","formattedAddress":"Planet Fitness, Shadow Creek Parkway, Pearland, TX","latitude":29.58376,"longitude":-95.38912,"types":["gym"],"sourceQueryType":"google_export"}
{"query":"Anytime Fitness","category":"gym","placeId":"0x8640c75e852e0fb7:0xf86c72ec3bce8a52","name":"Anytime Fitness, Yale Street, Houston, TX","formattedAddress":"Anytime Fitness, Yale Street, Houston, TX","latitude":29.791183,"longitude":-95.398618,"types":["gym"],"sourceQueryType":"google_export"}
{"query":"Anytime Fitness","category":"gym","placeId":"0x8640d7c3f7490155:0xee6d271c6b6a4f60","name":"Anytime Fitness, Barker Cypress Road, Cypress, TX","formattedAddress":"Anytime Fitness, Barker Cypress Road, Cypress, TX","latitude":29.937161999999997,"longitude":-95.680247,"types":["gym"],"sourceQueryType":"google_export"}
{"query":"Anytime Fitness","category":"gym","placeId":"0x864127e6a024006f:0xfd0e9678d37fbea5","name":"Anytime Fitness, Katy Freeway, Katy, TX","formattedAddress":"Anytime Fitness, Katy Freeway, Katy, TX","latitude":29.7822865,"longitude":-95.7205649,"types":["gym"],"sourceQueryType":"google_export"}
{"query":"Anytime Fitness","category":"gym","placeId":"0x8640e537ccb9ed35:0xfb1b420708c29ab8","name":"Anytime Fitness, University Boulevard, Sugar Land, TX","formattedAddress":"Anytime Fitness, University Boulevard, Sugar Land, TX","latitude":29.5470034,"longitude":-95.6126183,"types":["gym"],"sourceQueryType":"google_export"}
{"query":"Crunch Fitness","category":"gym","placeId":"0x88e77ba5642056e1:0x182e1715bd0bb927","name":"Crunch Fitness - East Colonial, East Colonial Drive, Orlando, FL","formattedAddress":"Crunch Fitness - East Colonial, East Colonial Drive, Orlando, FL","latitude":28.5518758,"longitude":-81.342349,"types":["gym"],"sourceQueryType":"google_export"}
{"query":"Crunch Fitness","category":"gym","placeId":"0x8640dd004acef157:0xea262f88ca1ea58","name":"Crunch Fitness - Kirkwood, Westheimer Road, Houston, TX","formattedAddress":"Crunch Fitness - Kirkwood, Westheimer Road, Houston, TX","latitude":29.7376068,"longitude":-95.5902021,"types":["gym"],"sourceQueryType":"google_export"}
{"query":"Crunch Fitness","category":"gym","placeId":"0x88e77f39637527cf:0xab145b78eeffa06f","name":"Crunch Fitness - Dr. Phillips, Doctor Phillips Boulevard, Orlando, FL","formattedAddress":"Crunch Fitness - Dr. Phillips, Doctor Phillips Boulevard, Orlando, FL","latitude":28.4544938,"longitude":-81.4904541,"types":["gym"],"sourceQueryType":"google_export"}
{"query":"Crunch Fitness","category":"gym","placeId":"0x8640b3fe7e6c853f:0x952abd9ef987affc","name":"Crunch Fitness - Humble, U.S. 59, Humble, TX","formattedAddress":"Crunch Fitness - Humble, U.S. 59, Humble, TX","latitude":30.0139177,"longitude":-95.26069,"types":["gym"],"sourceQueryType":"google_export"}
